- name: "Gaylord Texan Resort"
  slug: "gaylord-texan"
  street: "1501 Gaylord Trail"
  city: "Grapevine"
  region: "Texas"
  country: "United States"
  country_code: "US"
  postal_code: "76051"
  latitude: 32.9457
  longitude: -97.0700
  website: "https://www.marriott.com/en-us/hotels/dfwgt-gaylord-texan-resort-and-convention-center"
  description: "A sprawling Texas-sized resort featuring indoor gardens, waterways, and convention facilities in the heart of the Dallas-Fort Worth metroplex."

- name: "ICE Krakow Congress Centre"
  slug: "ice-krakow"
  street: "Marii Konopnickiej 17"
  city: "Krakow"
  region: "Lesser Poland"
  country: "Poland"
  country_code: "PL"
  postal_code: "30-302"
  latitude: 50.0478
  longitude: 19.9350
  website: "https://www.icekrakow.pl"
  description: "A striking modern congress centre on the banks of the Vistula River, offering panoramic views of Wawel Castle and world-class conference facilities."

- name: "Philharmonie Haarlem"
  slug: "philharmonie-haarlem"
  street: "Lange Begijnestraat 11"
  city: "Haarlem"
  country: "Netherlands"
  country_code: "NL"
  postal_code: "2011 HH"
  latitude: 52.3814
  longitude: 4.6362
  description: "A historic concert hall in the heart of Haarlem, offering intimate acoustics and a beautiful setting for events in the Dutch Golden Age city."

- name: "Ericsson HQ (Open Box)"
  slug: "ericsson-hq-kista"
  street: "Torshamnsgatan 21"
  city: "Stockholm"
  region: "Kista"
  country: "Sweden"
  country_code: "SE"
  latitude: 59.4047
  longitude: 17.9556
  description: "The Open Box venue at Ericsson's global headquarters in Kista, Stockholm's technology district."

- name: "VIFF Centre"
  slug: "viff-centre"
  street: "1181 Seymour Street"
  city: "Vancouver"
  region: "British Columbia"
  country: "Canada"
  country_code: "CA"
  latitude: 49.2770
  longitude: -123.1252
  website: "https://viff.org"
  description: "The Vancouver International Film Festival's dedicated screening and event centre in the heart of downtown Vancouver."

- name: "NH Málaga"
  slug: "nh-malaga"
  street: "C. San Jacinto 2"
  city: "Málaga"
  region: "Andalusia"
  country: "Spain"
  country_code: "ES"
  postal_code: "29007"
  latitude: 36.7213
  longitude: -4.4214
  website: "https://www.nh-hotels.com/en/hotel/nh-malaga"
  description: "A modern hotel in the heart of Málaga with excellent convention facilities, just minutes from the historic city center and Mediterranean coast."

- name: "voco Chicago Downtown"
  slug: "voco-chicago"
  street: "350 W Wolf Point Plaza"
  city: "Chicago"
  region: "Illinois"
  country: "United States"
  country_code: "US"
  postal_code: "60654"
  latitude: 41.8873
  longitude: -87.6368
  description: "A contemporary hotel at Wolf Point where the Chicago River's three branches meet, offering stunning city and river views in the heart of downtown."

- name: "ULB Solbosch Campus"
  slug: "ulb-solbosch"
  city: "Brussels"
  country: "Belgium"
  country_code: "BE"
  latitude: 50.8120
  longitude: 4.3817
  description: "The main campus of the Université libre de Bruxelles, a vibrant academic setting in the heart of Europe's capital."

- name: "Origin Workspace"
  slug: "origin-workspace-bristol"
  city: "Bristol"
  country: "United Kingdom"
  country_code: "GB"
  latitude: 51.4545
  longitude: -2.5879
  description: "A modern co-working and events space in Bristol, one of the UK's leading tech and creative hubs."

- name: "Varbergs Teater"
  slug: "varbergs-teater"
  street: "Engelbrektsgatan 5"
  city: "Varberg"
  country: "Sweden"
  country_code: "SE"
  postal_code: "432 41"
  latitude: 57.1053
  longitude: 12.2508
  description: "A charming historic theatre in the coastal Swedish town of Varberg, offering an intimate and atmospheric venue for community events."

- name: "Campus Varberg"
  slug: "campus-varberg"
  street: "Otto Torells gata 20"
  city: "Varberg"
  country: "Sweden"
  country_code: "SE"
  postal_code: "432 44"
  latitude: 57.1108
  longitude: 12.2609
  description: "An educational campus in Varberg used for workshops and training sessions."

- name: "Villa Celine"
  slug: "villa-celine-varberg"
  street: "Borgmästaregatan 15"
  city: "Varberg"
  country: "Sweden"
  country_code: "SE"
  postal_code: "432 41"
  latitude: 57.1063
  longitude: 12.2540
  description: "A venue in central Varberg used for events and gatherings."

- name: "Subvisual"
  slug: "subvisual-braga"
  street: "Av. Dom João II 404"
  city: "Braga"
  country: "Portugal"
  country_code: "PT"
  latitude: 41.5518
  longitude: -8.4229
  description: "The Braga studio of Subvisual, a renowned product design and development agency, nestled in one of Portugal's oldest and most vibrant cities."

- name: "IOFFICE Business Center (Drottninggatan)"
  slug: "ioffice-drottninggatan"
  street: "Drottninggatan 32, floor 8"
  city: "Stockholm"
  country: "Sweden"
  country_code: "SE"
  postal_code: "111 51"
  latitude: 59.3326
  longitude: 18.0649
  description: "A business center on Drottninggatan in central Stockholm, used for training events and workshops."

- name: "IOFFICE Business Center (Kungsgatan)"
  slug: "ioffice-kungsgatan"
  street: "Kungsgatan 64"
  city: "Stockholm"
  country: "Sweden"
  country_code: "SE"
  postal_code: "111 22"
  latitude: 59.3356
  longitude: 18.0530
  description: "A business center on Kungsgatan in central Stockholm, used for training events and workshops."

- name: "Best Western Premier Chateau Granville"
  slug: "chateau-granville"
  street: "1100 Granville Street"
  city: "Vancouver"
  region: "British Columbia"
  country: "Canada"
  country_code: "CA"
  latitude: 49.2778
  longitude: -123.1280
  description: "A boutique hotel in Vancouver’s vibrant downtown core, offering conference and meeting facilities including the Georgia boardroom."

- name: "980 Howe Street Rooftop"
  slug: "980-howe-rooftop"
  street: "980 Howe Street"
  city: "Vancouver"
  region: "British Columbia"
  country: "Canada"
  country_code: "CA"
  latitude: 49.2793
  longitude: -123.1263
  description: "A rooftop boardroom venue on Howe Street in downtown Vancouver, used for intimate professional training sessions."

- name: "Erlang Solutions Kraków"
  slug: "erlang-solutions-krakow"
  street: "Karmelicka 7"
  city: "Kraków"
  region: "Lesser Poland"
  country: "Poland"
  country_code: "PL"
  latitude: 50.0647
  longitude: 19.9330

- name: "Fresha Office, The Bower"
  slug: "fresha-london"
  street: "207-211 Old Street"
  city: "London"
  country: "United Kingdom"
  country_code: "GB"
  postal_code: "EC1V 9NR"
  latitude: 51.5265
  longitude: -0.0878

- name: "Brigadier General Charles E. McGee Library"
  slug: "mcgee-library-silver-spring"
  city: "Silver Spring"
  region: "Maryland"
  country: "United States"
  country_code: "US"
  latitude: 38.9960
  longitude: -77.0280

- name: "Rockville Memorial Library"
  slug: "rockville-memorial-library"
  street: "21 Maryland Avenue"
  city: "Rockville"
  region: "Maryland"
  country: "United States"
  country_code: "US"
  latitude: 39.0840
  longitude: -77.1528

- name: "Innovation Campus - Malaga Palace"
  slug: "innovation-campus-malaga-palace"
  street: "C. Álamos, 7"
  city: "Málaga"
  region: "Andalusia"
  country: "Spain"
  country_code: "ES"
  postal_code: "29012"
  latitude: 36.7194
  longitude: -4.4193

- name: "Fabrik DUMBO"
  slug: "fabrik-dumbo"
  street: "20 Jay Street, Suite 218"
  city: "Brooklyn"
  region: "New York"
  country: "United States"
  country_code: "US"
  postal_code: "11201"
  latitude: 40.7033
  longitude: -73.9867
