- name: "Gaylord Texan Resort"
  slug: "gaylord-texan"
  street: "1501 Gaylord Trail"
  city: "Grapevine"
  region: "Texas"
  country: "United States"
  country_code: "US"
  postal_code: "76051"
  latitude: 32.9457
  longitude: -97.0700
  website: "https://www.marriott.com/en-us/hotels/dfwgt-gaylord-texan-resort-and-convention-center"
  description: "A sprawling Texas-sized resort featuring indoor gardens, waterways, and convention facilities in the heart of the Dallas-Fort Worth metroplex."

- name: "ICE Krakow Congress Centre"
  slug: "ice-krakow"
  street: "Marii Konopnickiej 17"
  city: "Krakow"
  region: "Lesser Poland"
  country: "Poland"
  country_code: "PL"
  postal_code: "30-302"
  latitude: 50.0478
  longitude: 19.9350
  website: "https://www.icekrakow.pl"
  description: "A striking modern congress centre on the banks of the Vistula River, offering panoramic views of Wawel Castle and world-class conference facilities."

- name: "Hilton Warsaw Hotel and Convention Centre"
  slug: "hilton-warsaw"
  street: "Grzybowska 63"
  city: "Warsaw"
  country: "Poland"
  country_code: "PL"
  postal_code: "00-844"
  latitude: 52.2335
  longitude: 20.9861
  description: "A modern hotel and convention centre in central Warsaw, with large meeting rooms and direct access to public transport."

- name: "Prague Congress Centre"
  slug: "prague-congress-centre"
  street: "5. května 1640/65"
  city: "Prague"
  country: "Czech Republic"
  country_code: "CZ"
  postal_code: "140 00"
  latitude: 50.0612
  longitude: 14.4298
  website: "https://www.praguecc.cz"
  description: "A large modern congress centre in Prague's Nusle district, adjacent to the Vyšehrad metro station, with panoramic views over the Vltava valley and the city's historic skyline."

- name: "Golden Floor Tower"
  slug: "golden-floor-tower"
  street: "ul. Chłodna 51"
  city: "Warsaw"
  country: "Poland"
  country_code: "PL"
  description: "Conference and training venue on the 39th floor of the Warsaw Trade Tower, overlooking central Warsaw."

- name: "Barceló Sants"
  slug: "barcelo-sants"
  street: "Plaça dels Països Catalans s/n"
  city: "Barcelona"
  region: "Catalonia"
  country: "Spain"
  country_code: "ES"
  postal_code: "08014"
  latitude: 41.3795
  longitude: 2.1404
  description: "A design hotel built directly above Barcelona Sants railway station, with direct access to the AVE high-speed rail, metro, and local train links. Close to the Fira de Barcelona trade fair and 15 minutes by train from El Prat airport."

- name: "Mercure Hotel Berlin Tempelhof Airport"
  slug: "mercure-berlin-tempelhof"
  street: "Hermannstraße 214-216"
  city: "Berlin"
  country: "Germany"
  country_code: "DE"
  postal_code: "12049"
  latitude: 52.4738
  longitude: 13.4253
  description: "A modern conference hotel on the former Tempelhof Airport grounds in Berlin, a few minutes from the city centre and directly served by the Boddinstraße U-Bahn station."

- name: "Andel's Hotel Kraków"
  slug: "andels-hotel-krakow"
  street: "ul. Pawia 3"
  city: "Krakow"
  region: "Lesser Poland"
  country: "Poland"
  country_code: "PL"
  postal_code: "31-154"
  latitude: 50.0676
  longitude: 19.9461
  description: "A modern design hotel on the edge of Kraków's historic old town, next to the main railway station and the Galeria Krakowska shopping centre. Walking distance to Wawel Castle, the Main Market Square and the Kazimierz quarter."

- name: "Philharmonie Haarlem"
  slug: "philharmonie-haarlem"
  street: "Lange Begijnestraat 11"
  city: "Haarlem"
  country: "Netherlands"
  country_code: "NL"
  postal_code: "2011 HH"
  latitude: 52.3814
  longitude: 4.6362
  description: "A historic concert hall in the heart of Haarlem, offering intimate acoustics and a beautiful setting for events in the Dutch Golden Age city."

- name: "Ericsson HQ (Open Box)"
  slug: "ericsson-hq-kista"
  street: "Torshamnsgatan 21"
  city: "Stockholm"
  region: "Kista"
  country: "Sweden"
  country_code: "SE"
  latitude: 59.4047
  longitude: 17.9556
  description: "The Open Box venue at Ericsson's global headquarters in Kista, Stockholm's technology district."

- name: "VIFF Centre"
  slug: "viff-centre"
  street: "1181 Seymour Street"
  city: "Vancouver"
  region: "British Columbia"
  country: "Canada"
  country_code: "CA"
  latitude: 49.2770
  longitude: -123.1252
  website: "https://viff.org"
  description: "The Vancouver International Film Festival's dedicated screening and event centre in the heart of downtown Vancouver."

- name: "NH Málaga"
  slug: "nh-malaga"
  street: "C. San Jacinto 2"
  city: "Málaga"
  region: "Andalusia"
  country: "Spain"
  country_code: "ES"
  postal_code: "29007"
  latitude: 36.7213
  longitude: -4.4214
  website: "https://www.nh-hotels.com/en/hotel/nh-malaga"
  description: "A modern hotel in the heart of Málaga with excellent convention facilities, just minutes from the historic city center and Mediterranean coast."

- name: "voco Chicago Downtown"
  slug: "voco-chicago"
  street: "350 W Wolf Point Plaza"
  city: "Chicago"
  region: "Illinois"
  country: "United States"
  country_code: "US"
  postal_code: "60654"
  latitude: 41.8873
  longitude: -87.6368
  description: "A contemporary hotel at Wolf Point where the Chicago River's three branches meet, offering stunning city and river views in the heart of downtown."

- name: "ULB Solbosch Campus"
  slug: "ulb-solbosch"
  city: "Brussels"
  country: "Belgium"
  country_code: "BE"
  latitude: 50.8120
  longitude: 4.3817
  description: "The main campus of the Université libre de Bruxelles, a vibrant academic setting in the heart of Europe's capital."

- name: "Origin Workspace"
  slug: "origin-workspace-bristol"
  city: "Bristol"
  country: "United Kingdom"
  country_code: "GB"
  latitude: 51.4545
  longitude: -2.5879
  description: "A modern co-working and events space in Bristol, one of the UK's leading tech and creative hubs."

- name: "Varbergs Teater"
  slug: "varbergs-teater"
  street: "Engelbrektsgatan 5"
  city: "Varberg"
  country: "Sweden"
  country_code: "SE"
  postal_code: "432 41"
  latitude: 57.1053
  longitude: 12.2508
  description: "A charming historic theatre in the coastal Swedish town of Varberg, offering an intimate and atmospheric venue for community events."

- name: "Campus Varberg"
  slug: "campus-varberg"
  street: "Otto Torells gata 20"
  city: "Varberg"
  country: "Sweden"
  country_code: "SE"
  postal_code: "432 44"
  latitude: 57.1108
  longitude: 12.2609
  description: "An educational campus in Varberg used for workshops and training sessions."

- name: "Villa Celine"
  slug: "villa-celine-varberg"
  street: "Borgmästaregatan 15"
  city: "Varberg"
  country: "Sweden"
  country_code: "SE"
  postal_code: "432 41"
  latitude: 57.1063
  longitude: 12.2540
  description: "A venue in central Varberg used for events and gatherings."

- name: "Subvisual"
  slug: "subvisual-braga"
  street: "Av. Dom João II 404"
  city: "Braga"
  country: "Portugal"
  country_code: "PT"
  latitude: 41.5518
  longitude: -8.4229
  description: "The Braga studio of Subvisual, a renowned product design and development agency, nestled in one of Portugal's oldest and most vibrant cities."

- name: "IOFFICE Business Center (Drottninggatan)"
  slug: "ioffice-drottninggatan"
  street: "Drottninggatan 32, floor 8"
  city: "Stockholm"
  country: "Sweden"
  country_code: "SE"
  postal_code: "111 51"
  latitude: 59.3326
  longitude: 18.0649
  description: "A business center on Drottninggatan in central Stockholm, used for training events and workshops."

- name: "IOFFICE Business Center (Kungsgatan)"
  slug: "ioffice-kungsgatan"
  street: "Kungsgatan 64"
  city: "Stockholm"
  country: "Sweden"
  country_code: "SE"
  postal_code: "111 22"
  latitude: 59.3356
  longitude: 18.0530
  description: "A business center on Kungsgatan in central Stockholm, used for training events and workshops."

- name: "Best Western Premier Chateau Granville"
  slug: "chateau-granville"
  street: "1100 Granville Street"
  city: "Vancouver"
  region: "British Columbia"
  country: "Canada"
  country_code: "CA"
  latitude: 49.2778
  longitude: -123.1280
  description: "A boutique hotel in Vancouver’s vibrant downtown core, offering conference and meeting facilities including the Georgia boardroom."

- name: "980 Howe Street Rooftop"
  slug: "980-howe-rooftop"
  street: "980 Howe Street"
  city: "Vancouver"
  region: "British Columbia"
  country: "Canada"
  country_code: "CA"
  latitude: 49.2793
  longitude: -123.1263
  description: "A rooftop boardroom venue on Howe Street in downtown Vancouver, used for intimate professional training sessions."

- name: "Erlang Solutions Kraków"
  slug: "erlang-solutions-krakow"
  street: "Karmelicka 7"
  city: "Kraków"
  region: "Lesser Poland"
  country: "Poland"
  country_code: "PL"
  latitude: 50.0647
  longitude: 19.9330

- name: "Fresha Office, The Bower"
  slug: "fresha-london"
  street: "207-211 Old Street"
  city: "London"
  country: "United Kingdom"
  country_code: "GB"
  postal_code: "EC1V 9NR"
  latitude: 51.5265
  longitude: -0.0878

- name: "Brigadier General Charles E. McGee Library"
  slug: "mcgee-library-silver-spring"
  city: "Silver Spring"
  region: "Maryland"
  country: "United States"
  country_code: "US"
  latitude: 38.9960
  longitude: -77.0280

- name: "Rockville Memorial Library"
  slug: "rockville-memorial-library"
  street: "21 Maryland Avenue"
  city: "Rockville"
  region: "Maryland"
  country: "United States"
  country_code: "US"
  latitude: 39.0840
  longitude: -77.1528

- name: "Innovation Campus - Malaga Palace"
  slug: "innovation-campus-malaga-palace"
  street: "C. Álamos, 7"
  city: "Málaga"
  region: "Andalusia"
  country: "Spain"
  country_code: "ES"
  postal_code: "29012"
  latitude: 36.7194
  longitude: -4.4193

- name: "Altis Grand Hotel"
  slug: "altis-grand-hotel"
  street: "Rua Castilho 11"
  city: "Lisbon"
  country: "Portugal"
  country_code: "PT"
  postal_code: "1269-072"
  latitude: 38.7223
  longitude: -9.1489
  website: "https://www.altishotels.com/EN/HotelAltisLisboa/"
  description: "A five-star hotel in the heart of Lisbon, offering elegant event spaces and modern conference facilities on the prestigious Rua Castilho."

- name: "Fabrik DUMBO"
  slug: "fabrik-dumbo"
  street: "20 Jay Street, Suite 218"
  city: "Brooklyn"
  region: "New York"
  country: "United States"
  country_code: "US"
  postal_code: "11201"
  latitude: 40.7033
  longitude: -73.9867

- name: "Estrel Berlin"
  slug: "estrel-berlin"
  street: "Sonnenallee 225"
  city: "Berlin"
  country: "Germany"
  country_code: "DE"
  postal_code: "12057"
  latitude: 52.4734
  longitude: 13.4528
  website: "https://www.estrel.com"
  description: "Germany's largest hotel and convention centre, located in Berlin's Neukölln district along the banks of the Neukölln Ship Canal."

- name: "Münchenbryggeriet Events & Conferences"
  slug: "munchenbryggeriet"
  street: "Torkel Knutssongatan 2"
  city: "Stockholm"
  country: "Sweden"
  country_code: "SE"
  postal_code: "118 25"
  latitude: 59.32068
  longitude: 18.056175
  website: "https://www.munchenbryggeriet.se"
  description: "A historic former brewery on Södermalm, now one of Stockholm's largest event venues, with sweeping views over the city's waterfront."

- name: "Hyatt Centric Fisherman's Wharf"
  slug: "hyatt-centric-fishermans-wharf"
  street: "555 North Point Street"
  city: "San Francisco"
  region: "California"
  country: "United States"
  country_code: "US"
  postal_code: "94133"
  latitude: 37.80585
  longitude: -122.41614
  website: "https://www.hyatt.com/en-US/hotel/california/hyatt-centric-fishermans-wharf-san-francisco/sfofw"
  description: "A modern waterfront hotel on the edge of Fisherman's Wharf, walking distance to Pier 39 and the Cable Car Turnaround in San Francisco."

- name: "Computer History Museum"
  slug: "computer-history-museum"
  street: "1401 N Shoreline Blvd"
  city: "Mountain View"
  region: "California"
  country: "United States"
  country_code: "US"
  postal_code: "94043"
  latitude: 37.4145135
  longitude: -122.0787026
  website: "https://computerhistory.org/"
  description: "A museum dedicated to preserving and presenting the artifacts and stories of the Information Age, with a flexible event venue used by tech conferences in Silicon Valley."

- name: "Marines' Memorial Club & Hotel"
  slug: "marines-memorial-club"
  street: "609 Sutter Street"
  city: "San Francisco"
  region: "California"
  country: "United States"
  country_code: "US"
  postal_code: "94102"
  latitude: 37.78892
  longitude: -122.41072
  website: "https://marinesmemorial.org"
  description: "A historic 12-story hotel and event venue in San Francisco's Union Square, owned and operated by the Marines' Memorial Association as a living memorial to fallen U.S. Marines."

- name: "ILEC Conference Centre"
  slug: "ilec-conference-centre"
  street: "47 Lillie Road"
  city: "London"
  country: "United Kingdom"
  country_code: "GB"
  postal_code: "SW6 1UD"
  latitude: 51.4859
  longitude: -0.1991
  website: "https://www.ileclondon.co.uk"
  description: "A large conference centre attached to the ibis London Earls Court hotel in West Kensington, with a flagship 750-seat London Suite auditorium used by tech and industry events."

- name: "CodeNode"
  slug: "codenode-london"
  street: "10 South Place"
  city: "London"
  country: "United Kingdom"
  country_code: "GB"
  postal_code: "EC2M 7EB"
  latitude: 51.5189
  longitude: -0.0844
  description: "A purpose-built tech conference and meetup venue in the City of London near Moorgate, originally opened by Skills Matter as Europe's largest dedicated developer event space."

- name: "Ciudad Cultural Konex"
  slug: "ciudad-cultural-konex"
  street: "Sarmiento 3131"
  city: "Buenos Aires"
  country: "Argentina"
  country_code: "AR"
  postal_code: "C1196AAG"
  latitude: -34.6033
  longitude: -58.4108
  website: "https://www.ciudadculturalkonex.org"
  description: "A cultural complex in Buenos Aires' Abasto neighbourhood, set inside a former 1920s factory and oil depot that has been refurbished into a landmark venue for music, theatre, and community arts."

- name: "10Pines Offices"
  slug: "10pines-offices"
  street: "Avenida Leandro N. Alem 896, 6to piso"
  city: "Buenos Aires"
  country: "Argentina"
  country_code: "AR"
  postal_code: "C1001AAQ"
  latitude: -34.5984
  longitude: -58.3717
  website: "https://www.10pines.com"
  description: "The downtown Buenos Aires offices of software consultancy 10Pines, occupying the 6th floor of an Av. Leandro N. Alem building near Retiro."

- name: "Fortune Park JP Celestial"
  slug: "fortune-park-jp-celestial"
  street: "5/43, Race Course Road"
  city: "Bengaluru"
  region: "Karnataka"
  country: "India"
  country_code: "IN"
  postal_code: "560009"
  latitude: 12.9809
  longitude: 77.5760
  website: "https://www.itchotels.com/in/en/fortunepark-jp-celestial-bengaluru"
  description: "A business hotel on Race Course Road in central Bengaluru, near the High Grounds and within walking distance of MG Road and Cubbon Park."

- name: "Bitcrowd Office"
  slug: "bitcrowd-berlin"
  street: "Oranienstr. 6"
  city: "Berlin"
  country: "Germany"
  country_code: "DE"
  postal_code: "10997"
  latitude: 52.4999
  longitude: 13.4251
  website: "https://bitcrowd.net"
  description: "The Berlin office of software consultancy Bitcrowd, in the Luisenstadt area of Kreuzberg, used as a meetup and conference venue for the BEAM community."

- name: "Lloyd Hotel"
  slug: "lloyd-hotel-amsterdam"
  street: "Oostelijke Handelskade 34"
  city: "Amsterdam"
  country: "Netherlands"
  country_code: "NL"
  postal_code: "1019 BN"
  latitude: 52.3742
  longitude: 4.9348
  website: "https://www.lloydhotel.com"
  description: "A landmark hotel and cultural embassy on the Java-eiland in Amsterdam's Eastern Docklands, set inside a 1921 building originally built to house emigrants travelling to South America, and now featuring rooms ranging from one to five stars."

- name: "Sheraton München Westpark Hotel"
  slug: "sheraton-muenchen-westpark"
  street: "Garmischer Straße 2"
  city: "Munich"
  country: "Germany"
  country_code: "DE"
  postal_code: "80339"
  latitude: 48.1336
  longitude: 11.5323
  website: "https://www.marriott.com/en-us/hotels/mucsi-sheraton-muenchen-westpark-hotel/"
  description: "A conference hotel on Garmischer Straße in Munich's Westend district, just south of the Theresienwiese (the Oktoberfest grounds) and a short walk to the Hackerbrücke S-Bahn station."

- name: "Consorzio T3LAB"
  slug: "t3lab-bologna"
  street: "Via Sario Bassanelli, 9/11"
  city: "Bologna"
  region: "Emilia-Romagna"
  country: "Italy"
  country_code: "IT"
  postal_code: "40129"
  latitude: 44.5217
  longitude: 11.3460
  description: "A consortium for technology transfer in the Navile district of Bologna, hosting a co-working space and conference area used by the local tech community."

- name: "ELTE Faculty of Informatics"
  slug: "elte-budapest"
  street: "Pázmány Péter sétány 1/C"
  city: "Budapest"
  country: "Hungary"
  country_code: "HU"
  postal_code: "1117"
  latitude: 47.4723
  longitude: 19.0627
  website: "https://www.inf.elte.hu"
  description: "The Faculty of Informatics of Eötvös Loránd University, on the Lágymányos campus in southern Budapest beside the Danube — a long-standing centre of Hungarian functional programming research and Erlang teaching."

- name: "betahaus Berlin Neukölln"
  slug: "betahaus-berlin-neukoelln"
  street: "Harzer Str. 39"
  city: "Berlin"
  country: "Germany"
  country_code: "DE"
  postal_code: "12059"
  latitude: 52.4839
  longitude: 13.4495
  website: "https://www.betahaus.com"
  description: "A coworking space and event venue in Berlin's Neukölln district, used regularly by the local tech community for meetups and small conferences."
